City_ID,City,Lat,Lng,Max Temp,Humidity,Cloudiness,Wind Speed,Country,Date
0,lakatoro,-16.0999,167.4164,28.0,84,100,7.6,VU,1675552610
1,port alfred,-33.5906,26.891,23.43,88,100,1.34,ZA,1675552445
2,arraial do cabo,-22.9661,-42.0278,25.55,87,25,5.86,BR,1675552317
3,guerrero negro,27.9769,-114.0611,19.86,41,0,5.26,MX,1675552600
4,kapaa,22.0752,-159.319,24.18,88,100,7.72,US,1675552411
5,ushuaia,-54.8,-68.3,8.44,97,100,3.27,AR,1675552317
6,manzhouli,49.6,117.4333,-25.95,99,28,2.31,CN,1675552610
7,salina,38.8403,-97.6114,13.5,39,0,5.14,US,1675552610
8,avarua,-21.2078,-159.775,29.03,79,75,6.17,CK,1675552361
9,port-gentil,-0.7193,8.7815,25.98,94,20,1.54,GA,1675552611
10,mar del plata,-38.0023,-57.5575,19.97,72,0,2.68,AR,1675552381
11,qaanaaq,77.484,-69.3632,-19.67,60,70,2.05,GL,1675552365
12,albany,42.6001,-73.9662,-10.59,47,70,2.11,US,1675552374
13,cherskiy,68.75,161.3,-38.28,100,97,1.68,RU,1675552496
14,mataura,-46.1927,168.8643,21.42,75,100,1.12,NZ,1675552319
15,nabire,-3.3667,135.4833,23.88,96,100,1.6,ID,1675552612
16,noumea,-22.2763,166.4572,32.99,99,80,6.19,NC,1675552294
17,henties bay,-22.116,14.2845,17.89,87,97,3.35,NA,1675552486
18,leningradskiy,69.3833,178.4167,-31.96,99,100,2.02,RU,1675552429
19,coihaique,-45.5752,-72.0662,25.97,38,20,3.09,CL,1675552612
20,raymond,43.9015,-70.4703,-13.88,43,78,1.79,US,1675552612
21,culpeper,38.5004,-77.9664,0.46,38,0,2.06,US,1675552391
22,umm lajj,25.0213,37.2685,18.52,54,23,3.96,SA,1675552613
23,na wa,17.4897,104.1006,23.02,87,97,1.68,TH,1675552613
24,suntar,62.1444,117.6319,-43.86,100,95,1.53,RU,1675552613
25,islahiye,37.025,36.6306,0.62,96,100,1.27,TR,1675552614
26,antofagasta,-23.65,-70.4,23.6,78,2,2.18,CL,1675552503
27,rikitea,-23.1203,-134.9692,26.2,74,2,5.8,PF,1675552318
28,provideniya,64.3833,-173.3,-19.22,89,100,4.97,RU,1675552480
29,puerto ayora,-0.7393,-90.3518,27.53,89,58,3.13,EC,1675552431
30,nikolskoye,59.7035,30.7861,-4.0,91,99,2.94,RU,1675552432
31,waipawa,-41.4122,175.5153,23.93,62,28,3.17,NZ,1675552614
32,port hardy,50.6996,-127.4199,8.1,93,75,9.77,CA,1675552614
33,imbituba,-28.24,-48.6703,23.05,84,32,2.74,BR,1675552615
34,tyulgan,52.3405,56.166,-18.18,92,95,2.46,RU,1675552615
35,lavrentiya,65.5833,-171.0,-24.01,94,91,2.98,RU,1675552540
36,new norfolk,-42.7826,147.0587,20.4,54,10,0.89,AU,1675552425
37,murgab,37.4966,61.9714,3.93,93,100,3.09,TM,1675552615
38,bubaque,11.2833,-15.8333,25.01,65,14,5.91,GW,1675552615
39,esperance,-33.8667,121.9,19.38,61,0,6.87,AU,1675552616
40,wexford,52.3342,-6.4575,6.05,94,73,3.13,IE,1675552616
41,cape town,-33.9258,18.4232,21.18,89,64,0.45,ZA,1675552289
42,cidreira,-30.1811,-50.2056,23.36,75,57,4.75,BR,1675552301
43,dhidhdhoo,6.8833,73.1,26.66,78,99,1.93,MV,1675552616
44,khatanga,71.9667,102.5,-39.13,100,50,2.26,RU,1675552551
45,busselton,-33.65,115.3333,24.07,40,77,2.6,AU,1675552482
46,bluff,-46.6,168.3333,16.92,90,100,6.25,NZ,1675552371
47,avera,33.194,-82.5271,8.54,48,60,2.12,US,1675552422
48,thompson,55.7435,-97.8558,-17.91,65,75,2.06,CA,1675552426
49,dikson,73.5069,80.5464,-19.39,97,100,1.34,RU,1675552489
50,harbour breton,47.4833,-55.7983,-8.06,86,100,21.2,CA,1675552617
51,lebu,-37.6167,-73.65,16.34,89,59,1.37,CL,1675552410
52,bongandanga,1.5,21.05,24.22,48,96,0.6,CD,1675552617
53,jamestown,42.097,-79.2353,-3.23,34,0,6.17,US,1675552497
54,brae,60.3964,-1.353,5.53,65,51,9.8,GB,1675552617
55,chokurdakh,70.6333,147.9167,-30.52,97,80,3.8,RU,1675552485
56,auki,-8.7676,160.7034,27.71,83,100,2.77,SB,1675552618
57,standerton,-26.9337,29.2415,15.34,98,3,1.97,ZA,1675552618
58,east london,-33.0153,27.9116,23.5,82,100,4.87,ZA,1675552391
59,carnarvon,-24.8667,113.6333,26.05,70,1,3.19,AU,1675552429
60,nanao,37.05,136.9667,3.49,74,86,0.57,JP,1675552618
61,punta arenas,-53.15,-70.9167,12.06,94,100,6.69,CL,1675552171
62,dhanwar,24.4167,85.9833,13.4,45,5,2.87,IN,1675552619
63,bengkulu,-3.8004,102.2655,23.34,89,100,2.21,ID,1675552493
64,te anau,-45.4167,167.7167,17.98,97,100,2.65,NZ,1675552619
65,katsuura,35.1333,140.3,7.16,66,11,6.45,JP,1675552492
66,mpika,-11.8343,31.4529,16.25,93,97,0.57,ZM,1675552620
67,san patricio,28.017,-97.5169,20.92,60,35,4.06,US,1675552495
68,hobart,-42.8794,147.3294,20.59,57,20,3.09,AU,1675552433
69,severnyy,50.677,36.5532,-3.98,92,100,3.13,RU,1675552495
70,huescar,37.811,-2.5412,5.07,36,1,0.83,ES,1675552620
71,calama,-22.4667,-68.9333,18.27,59,75,8.23,CL,1675552621
72,bredasdorp,-34.5322,20.0403,20.02,89,0,3.44,ZA,1675552430
73,pisco,-13.7,-76.2167,23.34,94,0,4.12,PE,1675552501
74,tevriz,57.509,72.4042,-21.15,100,99,0.53,RU,1675552621
75,vaini,-21.2,-175.2,30.09,74,75,7.2,TO,1675552439
76,longyearbyen,78.2186,15.6401,-9.09,62,0,10.8,SJ,1675552621
77,kavieng,-2.5744,150.7967,28.42,71,95,1.97,PG,1675552595
78,tasiilaq,65.6145,-37.6368,-3.91,88,100,11.47,GL,1675552425
79,kodiak,57.79,-152.4072,1.73,75,40,1.54,US,1675552426
80,hasaki,35.7333,140.8333,6.23,56,5,7.2,JP,1675552540
81,aswan,24.0934,32.907,13.9,28,38,3.82,EG,1675552622
82,ararat,39.8317,44.7049,-1.81,67,100,1.82,AM,1675552622
83,butaritari,3.0707,172.7902,27.36,80,65,8.45,KI,1675552441
84,manresa,41.725,1.8266,13.34,62,0,1.34,ES,1675552624
85,talas,38.6908,35.5538,-4.63,93,75,0.0,TR,1675552625
86,port elizabeth,-33.918,25.5701,22.32,71,89,2.82,ZA,1675552499
87,coquimbo,-29.9533,-71.3436,20.85,68,0,4.63,CL,1675552514
88,barrow,71.2906,-156.7887,-30.99,76,40,4.12,US,1675552429
89,walvis bay,-22.9575,14.5053,17.83,80,100,4.64,NA,1675552535
90,kulhudhuffushi,6.6221,73.07,26.67,78,100,2.11,MV,1675552626
91,bambanglipuro,-7.95,110.2833,24.97,85,100,4.74,ID,1675552627
92,tungor,53.3808,142.9564,-28.58,99,63,3.69,RU,1675552627
93,georgetown,5.4112,100.3354,25.96,73,20,4.12,MY,1675552349
94,canutama,-6.5339,-64.3831,23.26,97,99,1.37,BR,1675552628
95,yumen,40.2833,97.2,-3.28,39,100,7.15,CN,1675552628
96,tiksi,71.6872,128.8694,-28.81,100,100,1.22,RU,1675552488
97,fairbanks,64.8378,-147.7164,-11.16,79,75,2.57,US,1675552556
98,tual,-5.6667,132.75,27.35,81,100,6.47,ID,1675552435
99,yulara,-25.2406,130.9889,22.35,26,0,6.66,AU,1675552490
100,loandjili,-4.7561,11.8578,26.35,87,68,2.91,CG,1675552629
101,cody,44.5263,-109.0565,7.12,37,0,11.18,US,1675552629
102,puerto varas,-41.3195,-72.9854,24.12,46,0,5.14,CL,1675552630
103,tilichiki,60.4667,166.1,-26.38,96,40,3.71,RU,1675552534
104,genhe,50.7833,121.5167,-33.14,100,100,0.16,CN,1675552630
105,embu,-23.6489,-46.8522,24.02,88,97,4.33,BR,1675552631
106,port macquarie,-31.4333,152.9167,25.5,56,0,1.04,AU,1675552440
107,anisoc,1.8658,10.7689,21.84,99,36,0.83,GQ,1675552631
108,hermanus,-34.4187,19.2345,21.56,92,24,3.05,ZA,1675552363
109,souillac,-20.5167,57.5167,26.21,83,75,1.54,MU,1675552632
110,aklavik,68.2191,-135.0107,-35.0,75,0,1.54,CA,1675552549
111,pochutla,15.7432,-96.4661,32.9,48,6,3.43,MX,1675552632
112,saint anthony,45.0205,-93.218,-1.5,69,75,3.6,US,1675552423
113,nuuk,64.1835,-51.7216,-20.82,79,100,5.36,GL,1675552365
114,luderitz,-26.6481,15.1594,17.89,83,42,7.06,NA,1675552633
115,bac lieu,9.285,105.7244,24.43,83,95,6.74,VN,1675552634
116,airdrie,55.866,-3.9803,4.44,86,6,2.68,GB,1675552528
117,tuktoyaktuk,69.4541,-133.0374,-38.89,100,32,0.92,CA,1675552424
118,kamenka,51.3223,42.7678,-6.32,96,100,3.56,RU,1675552637
119,touros,-5.1989,-35.4608,26.51,80,82,6.09,BR,1675552481
120,guna,24.65,77.3167,15.07,39,0,1.48,IN,1675552638
121,sao filipe,14.8961,-24.4956,22.15,63,23,6.34,CV,1675552521
122,baruun-urt,46.6806,113.2792,-20.32,90,29,0.7,MN,1675552638
123,penzance,50.1186,-5.5371,6.38,84,99,1.29,GB,1675552639
124,palafrugell,41.9174,3.1631,14.68,9,0,2.58,ES,1675552639
125,kaitangata,-46.2817,169.8464,23.38,62,100,1.5,NZ,1675552365
126,cambrils,41.0748,1.0524,12.81,45,0,0.51,ES,1675552640
127,ternate,0.8,127.4,26.23,78,100,3.22,ID,1675552643
128,myitkyina,25.3833,97.4,14.14,58,0,1.2,MM,1675552643
129,alofi,-19.0595,-169.9187,27.94,78,100,4.12,NU,1675552644
130,nyurba,63.2842,118.3319,-47.54,100,100,0.82,RU,1675552645
131,husavik,66.0449,-17.3389,-2.68,75,38,6.62,IS,1675552533
132,vila velha,-20.3297,-40.2925,27.19,85,0,7.2,BR,1675552589
133,coahuayana,18.7333,-103.6833,28.93,43,0,2.59,MX,1675552646
134,portland,45.5234,-122.6762,11.71,77,100,3.58,US,1675552314
135,gubkinskiy,64.434,76.5026,-10.43,93,100,5.26,RU,1675552647
136,lorengau,-2.0226,147.2712,28.86,69,100,2.53,PG,1675552565
137,zyryanka,65.75,150.85,-28.45,97,100,2.71,RU,1675552647
138,darovskoy,58.77,47.9564,-9.34,98,100,0.74,RU,1675552648
139,harper,4.375,-7.7169,26.05,85,10,3.06,LR,1675552648
140,shimabara,32.7833,130.3667,1.93,61,6,3.07,JP,1675552648
141,qaqortoq,60.7167,-46.0333,-5.47,81,98,6.78,GL,1675552552
142,laguna,38.421,-121.4238,18.99,72,100,6.17,US,1675552498
143,ribeira grande,38.5167,-28.7,16.54,91,26,5.36,PT,1675552428
144,atuona,-9.8,-139.0333,25.93,74,30,7.73,PF,1675552439
145,dunedin,-45.8742,170.5036,24.33,60,100,3.58,NZ,1675552536
146,bethel,41.3712,-73.414,-6.86,38,100,2.06,US,1675552495
147,chapais,49.7834,-74.8492,-22.12,95,100,4.86,CA,1675552424
148,havoysund,70.9963,24.6622,-1.87,90,99,5.13,NO,1675552649
149,vila franca do campo,37.7167,-25.4333,14.23,84,2,3.25,PT,1675552649
150,kangaatsiaq,68.3065,-53.4641,-21.68,94,75,4.03,GL,1675552650
151,colares,38.7992,-9.4469,13.2,59,0,6.71,PT,1675552650
152,victoria,22.2855,114.1577,18.3,86,100,3.58,HK,1675552254
153,alta floresta,-9.8756,-56.0861,21.7,98,95,1.42,BR,1675552565
154,hilo,19.7297,-155.09,26.27,80,100,4.12,US,1675552317
155,san francisco,37.7749,-122.4194,15.26,92,100,7.72,US,1675551930
156,benguela,-12.5763,13.4055,24.28,81,96,1.43,AO,1675552651
157,rudbar,30.15,62.6,14.7,38,8,1.46,AF,1675552652
158,nargana,9.4428,-78.5906,25.61,82,21,7.51,PA,1675552652
159,saryozek,44.3583,77.9753,-4.16,86,89,2.36,KZ,1675552652
160,olinda,-8.0089,-34.8553,25.85,83,75,2.57,BR,1675552585
161,khasan,42.4308,130.6434,-8.2,79,65,1.42,RU,1675552596
162,axim,4.8699,-2.2405,25.91,89,100,3.5,GH,1675552653
163,chuy,-33.6971,-53.4616,18.69,93,22,5.66,UY,1675552449
164,juneau,58.3019,-134.4197,1.23,94,100,0.0,US,1675552478
165,pimentel,-6.8367,-79.9342,25.16,69,0,9.77,PE,1675552653
166,vanavara,60.34,102.2797,-22.05,100,97,0.89,RU,1675552653
167,hithadhoo,-0.6,73.0833,27.52,71,83,6.97,MV,1675552483
168,tuatapere,-46.1333,167.6833,18.22,99,100,0.51,NZ,1675552432
169,teguise,29.0605,-13.564,13.12,63,20,3.09,ES,1675552056
170,machilipatnam,16.1667,81.1333,21.39,78,3,1.82,IN,1675552488
171,aleksandrov gay,50.147,48.5704,-6.35,94,100,2.03,RU,1675552654
172,port lincoln,-34.7333,135.8667,18.17,66,61,2.04,AU,1675552654
173,birao,10.2849,22.7882,21.43,15,61,3.13,CF,1675552654
174,boende,-0.2167,20.8667,25.01,73,100,1.36,CD,1675552423
175,kollam,8.8833,76.6,24.5,83,84,2.23,IN,1675552655
176,norman wells,65.282,-126.8329,-24.79,98,84,1.58,CA,1675552380
177,narsaq,60.9167,-46.05,-3.88,88,100,3.62,GL,1675552450
178,sanandaj,35.3144,46.9923,-2.99,74,75,0.0,IR,1675552655
179,yima,34.7381,111.8839,0.03,74,31,1.05,CN,1675552655
180,san policarpo,12.1791,125.5072,25.98,84,100,7.86,PH,1675552656
181,banjar,-8.19,114.9675,24.9,88,100,0.88,ID,1675552656
182,greensburg,40.3015,-79.5389,1.25,39,0,2.57,US,1675552656
183,emerald,-23.5333,148.1667,27.97,41,99,5.98,AU,1675552573
184,baoning,25.3378,110.026,5.92,93,100,1.0,CN,1675552657
185,cacoal,-11.4386,-61.4472,23.67,94,100,1.64,BR,1675552537
186,faanui,-16.4833,-151.75,27.54,73,56,7.8,PF,1675552495
187,belmonte,-15.8631,-38.8828,26.62,80,2,4.82,BR,1675552657
188,renqiu,38.6989,116.0936,-0.58,66,1,3.18,CN,1675552657
189,mandalgovi,45.7625,106.2708,-12.14,54,100,2.91,MN,1675552658
190,cao bang,22.6667,106.25,17.09,98,100,1.11,VN,1675552658
191,khonsa,27.0167,95.5667,11.66,53,6,1.55,IN,1675552658
192,masvingo,-20.0637,30.8277,17.89,89,72,0.87,ZW,1675552658
193,salto,-31.3833,-57.9667,27.71,40,0,5.36,UY,1675552474
194,college,64.8569,-147.8028,-11.17,79,75,2.57,US,1675552659
195,goderich,43.7501,-81.7165,-3.94,69,88,11.64,CA,1675552507
196,vestmanna,62.1564,-7.1664,3.51,81,75,10.8,FO,1675552598
197,boyolangu,-8.1181,111.8935,24.19,84,100,1.03,ID,1675552660
198,puerto suarez,-18.95,-57.8,28.55,51,59,0.81,BO,1675552660
199,praia da vitoria,38.7333,-27.0667,15.98,95,12,6.22,PT,1675552438
200,laishevo,55.4046,49.5504,-10.88,99,100,1.65,RU,1675552660
201,saldanha,-33.0117,17.9442,18.56,96,93,6.45,ZA,1675552557
202,dwarka,22.2394,68.9678,20.31,66,48,4.39,IN,1675552542
203,mahebourg,-20.4081,57.7,25.14,83,53,4.28,MU,1675552456
204,yinchuan,38.4681,106.2731,-2.71,35,0,0.59,CN,1675552566
205,constantine,36.365,6.6147,4.67,81,20,2.06,DZ,1675552537
206,naze,28.3667,129.4833,13.36,67,99,4.7,JP,1675552525
207,chernyshevsk,52.5243,117.0174,-33.28,100,91,0.31,RU,1675552661
208,wasilla,61.5814,-149.4394,-2.61,88,100,0.0,US,1675552661
209,nantucket,41.2835,-70.0995,-7.92,45,75,4.63,US,1675552556
210,taltal,-25.4,-70.4833,22.02,77,53,1.37,CL,1675552556
211,puerto leguizamo,-0.1934,-74.7819,24.48,84,81,1.21,CO,1675552661
212,nizhniy chir,48.3597,43.0865,-2.4,97,98,1.96,RU,1675552662
213,blackwater,-23.5833,148.8833,27.37,57,99,3.36,AU,1675552662
214,maldonado,-34.6667,-54.9167,21.24,90,81,6.76,UY,1675552662
215,codrington,-38.2667,141.9667,15.63,75,100,2.79,AU,1675552526
216,anito,12.4497,125.2886,24.92,90,96,5.94,PH,1675552663
217,castro,-24.7911,-50.0119,17.45,94,84,2.03,BR,1675552478
218,guane,22.2025,-84.0875,24.25,74,66,2.27,CU,1675552663
219,cumberland,35.0502,-78.8664,4.76,39,0,1.54,US,1675552663
220,banning,33.9256,-116.8764,21.3,27,38,3.11,US,1675552664
221,cabo san lucas,22.8909,-109.9124,26.45,47,0,3.6,MX,1675552208
222,upernavik,72.7868,-56.1549,-21.42,97,100,1.39,GL,1675552528
223,davila,18.4726,120.5763,19.99,69,24,1.93,PH,1675552664
224,necochea,-38.5473,-58.7368,17.73,65,0,4.73,AR,1675552664
225,port-cartier,50.0334,-66.8654,-19.58,71,60,7.34,CA,1675552285
226,tiznit,29.5833,-9.5,10.27,42,6,1.19,MA,1675552664
227,klaksvik,62.2266,-6.589,4.51,74,50,13.96,FO,1675552436
228,petatlan,17.5167,-101.2667,29.89,44,0,2.17,MX,1675552500
229,jacqueville,5.2052,-4.4146,26.7,83,62,3.44,CI,1675552665
230,hamilton,39.1834,-84.5333,7.97,45,0,7.2,US,1675552381
231,erdenet,49.0333,104.0833,-19.89,89,65,1.26,MN,1675552665
232,ilulissat,69.2167,-51.1,-18.99,71,73,3.09,GL,1675552522
233,bolobo,-2.1667,16.2333,24.63,75,100,2.57,CD,1675552665
234,flinders,-34.5833,150.8552,25.59,47,0,2.24,AU,1675552484
235,santa rosa,14.3122,121.1114,24.45,80,96,3.69,PH,1675552522
236,poum,-20.2333,164.0167,27.85,77,24,2.86,NC,1675552536
237,mount isa,-20.7333,139.5,27.87,26,84,5.14,AU,1675552666
238,sitka,57.0531,-135.33,2.94,87,100,0.0,US,1675552474
239,teya,60.3778,92.6267,-12.49,98,100,1.37,RU,1675552666
240,alugan,12.2188,125.4808,25.71,85,99,7.38,PH,1675552666
241,atar,20.5169,-13.0499,16.57,19,62,5.25,MR,1675552667
242,nome,64.5011,-165.4064,-9.96,79,100,4.12,US,1675552488
243,kruisfontein,-34.0033,24.7314,21.34,62,64,2.14,ZA,1675552667
244,hattiesburg,31.3271,-89.2903,17.18,37,0,2.57,US,1675552667
245,jiujiang,29.7333,115.9833,8.87,83,99,2.33,CN,1675552668
246,yar-sale,66.8333,70.8333,-12.8,97,97,2.81,RU,1675552668
247,kyrnasivka,48.5955,28.979,-3.81,79,100,5.62,UA,1675552668
248,liverpool,53.4106,-2.9779,6.97,82,0,3.6,GB,1675552415
249,borazjan,29.2666,51.2159,13.89,61,90,2.57,IR,1675552669
250,tres arroyos,-38.3739,-60.2798,22.7,36,0,5.2,AR,1675552605
251,sao miguel do araguaia,-13.275,-50.1628,23.44,82,97,0.49,BR,1675552551
252,yellowknife,62.456,-114.3525,-26.36,68,29,1.34,CA,1675552314
253,dongli,23.5656,116.8194,13.99,100,100,0.0,CN,1675552669
254,pevek,69.7008,170.3133,-37.31,100,94,0.65,RU,1675552429
255,cayenne,4.9333,-52.3333,24.02,94,75,1.03,GF,1675552575
256,grand gaube,-20.0064,57.6608,25.21,83,97,3.13,MU,1675552488
257,lata,40.1629,-8.3327,4.49,68,0,1.96,PT,1675552559
258,manali,13.1667,80.2667,24.05,73,5,0.79,IN,1675552670
259,ancud,-41.8697,-73.8203,19.08,74,45,1.31,CL,1675552424
260,lompoc,34.6391,-120.4579,21.08,77,100,5.81,US,1675552562
261,luwuk,-0.9516,122.7875,24.89,86,100,1.76,ID,1675552393
262,darlawn,24.0167,92.9,8.01,62,98,1.59,IN,1675552670
263,mount gambier,-37.8333,140.7667,15.2,72,100,1.73,AU,1675552510
264,sola,-13.8833,167.55,27.03,84,100,14.26,VU,1675552670
265,araouane,18.9048,-3.5265,16.03,17,99,5.2,ML,1675552552
266,yakima,46.4665,-120.6678,6.65,85,100,3.09,US,1675552579
267,berlevag,70.8578,29.0864,-3.0,86,100,3.6,NO,1675552598
268,kharp,66.8014,65.8081,-14.34,89,84,4.13,RU,1675552671
269,bathsheba,13.2167,-59.5167,26.34,78,75,8.75,BB,1675552421
270,salzwedel,52.85,11.15,0.36,81,69,2.59,DE,1675552671
271,porto novo,6.4965,2.6036,26.95,84,9,4.53,BJ,1675552327
272,matamoros,25.5333,-103.25,25.06,27,40,4.12,MX,1675552671
273,fowa,8.9167,6.4,28.44,18,36,0.75,NG,1675552672
274,byron bay,-28.65,153.6167,27.62,69,99,3.72,AU,1675552672
275,oxbow,49.2333,-102.1676,-0.43,96,88,3.35,CA,1675552672
276,carutapera,-1.195,-46.02,24.71,93,100,3.49,BR,1675552673
277,saint-philippe,-21.3585,55.7679,25.77,86,99,4.62,RE,1675552477
278,siguiri,11.6667,-9.5,26.49,18,86,1.55,GN,1675552673
279,culaman,5.9603,125.6586,25.78,80,100,4.13,PH,1675552673
280,sinnamary,5.3833,-52.95,24.89,88,100,7.5,GF,1675552673
281,shenjiamen,29.9576,122.298,7.79,89,100,4.95,CN,1675552674
282,solntsevo,51.4185,36.7499,-3.81,97,95,2.63,RU,1675552674
283,deori khas,23.4,79.0167,14.42,29,2,1.06,IN,1675552674
284,riyadh,24.6877,46.7219,15.08,56,0,4.07,SA,1675552674
285,tefe,-3.3542,-64.7114,26.06,89,75,2.57,BR,1675552675
286,visnes,59.3556,5.2242,6.03,87,75,7.72,NO,1675552675
287,vao,-22.6667,167.4833,26.4,87,92,8.72,NC,1675552675
288,port blair,11.6667,92.75,26.07,82,18,3.64,IN,1675552560
289,los llanos de aridane,28.6585,-17.9182,14.86,72,75,3.6,ES,1675552499
290,roald,62.5833,6.1333,5.06,93,75,8.23,NO,1675552676
291,gisborne,-38.6533,178.0042,24.06,68,3,3.66,NZ,1675552676
292,dzilam gonzalez,21.2833,-88.9333,23.53,74,68,4.74,MX,1675552676
293,laramie,41.3114,-105.5911,3.07,52,0,12.86,US,1675552677
294,zatoka,46.0725,30.4654,0.74,74,100,11.25,UA,1675552677
295,bahia honda,22.9036,-83.1592,23.66,80,50,5.45,CU,1675552677
296,tabatinga,-4.2525,-69.9381,28.05,83,75,2.06,BR,1675552615
297,aksarka,66.5606,67.7975,-19.74,100,78,1.42,RU,1675552603
298,cairns,-16.9167,145.7667,27.81,97,75,2.57,AU,1675552678
299,egvekinot,66.3167,-179.1667,-32.64,88,15,6.1,RU,1675552425
300,lagoa,39.05,-27.9833,15.04,88,4,8.19,PT,1675552465
301,camargo,27.6667,-105.1667,21.7,19,4,0.97,MX,1675552678
302,makakilo city,21.3469,-158.0858,24.2,75,100,3.09,US,1675552678
303,port hedland,-20.3167,118.5667,28.03,69,15,4.63,AU,1675552679
304,oxapampa,-10.5775,-75.4017,16.33,97,93,0.67,PE,1675552679
305,nanortalik,60.1432,-45.2371,-4.68,84,99,7.49,GL,1675552424
306,sobolevo,54.4299,31.8996,-5.15,93,100,5.46,RU,1675552679
307,urumqi,43.801,87.6005,-9.47,93,75,1.0,CN,1675552679
308,tuy hoa,13.0833,109.3,22.81,85,99,1.28,VN,1675552680
309,mehamn,71.0357,27.8492,-3.03,74,78,4.63,NO,1675552552
310,pangai,-19.8,-174.35,27.1,73,84,12.18,TO,1675552680
311,severo-kurilsk,50.6789,156.125,-2.6,72,100,2.62,RU,1675552436
312,bandarbeyla,9.4942,50.8122,23.37,69,90,6.68,SO,1675552521
313,itoman,26.1247,127.6694,18.01,82,75,4.63,JP,1675552680
314,tshela,-4.9833,12.9333,23.38,99,83,0.52,CD,1675552681
315,bangkalan,-7.0455,112.7351,24.97,87,100,3.27,ID,1675552681
316,curup,-3.4667,102.5333,18.82,97,100,0.63,ID,1675552681
317,knysna,-34.0363,23.0471,22.19,77,3,2.99,ZA,1675552681
318,derzhavinsk,51.1,66.3167,-14.22,96,60,4.06,KZ,1675552682
319,chegdomyn,51.1167,133.0167,-29.66,99,100,0.13,RU,1675552551
320,hay river,60.8156,-115.7999,-21.01,71,75,2.06,CA,1675552684
321,bowen,-20.0167,148.2333,26.98,87,100,3.13,AU,1675552497
322,safonovo,55.15,33.2167,-5.74,90,99,3.79,RU,1675552685
323,anand,22.5667,72.9333,16.99,29,40,2.92,IN,1675552686
324,dong hoi,17.4833,106.6,22.2,95,100,2.62,VN,1675552686
325,havre-saint-pierre,50.2334,-63.5986,-15.0,60,100,10.29,CA,1675552687
326,galveston,29.3669,-94.9669,17.06,76,0,4.63,US,1675552687
327,mabaruma,8.2,-59.7833,22.76,92,91,2.21,GY,1675552688
328,puerto escondido,15.85,-97.0667,27.46,74,40,2.57,MX,1675552665
329,metro,-5.1131,105.3067,23.54,90,100,1.03,ID,1675552689
330,rurrenabaque,-14.4413,-67.5278,21.41,99,100,0.89,BO,1675552689
331,palmer,42.1584,-72.3287,-9.31,29,100,2.57,US,1675552400
332,guozhen,34.3659,107.359,3.46,56,100,0.56,CN,1675552690
333,colac,-38.3333,143.5833,13.98,74,97,2.87,AU,1675552691
334,abu dhabi,24.4667,54.3667,18.31,80,0,0.0,AE,1675551981
335,kahului,20.8947,-156.47,26.09,68,20,9.77,US,1675552692
336,burhaniye,39.5004,26.9727,3.95,81,75,4.12,TR,1675552693
337,aripuana,-9.1667,-60.6333,23.12,98,100,1.22,BR,1675552695
338,padang,-0.9492,100.3543,24.03,87,100,1.29,ID,1675552588
339,tromso,69.6496,18.957,1.01,69,75,5.66,NO,1675552593
340,kumluca,36.3703,30.2869,7.76,88,100,2.33,TR,1675552696
341,cagliari,39.245,9.0912,9.97,82,20,2.06,IT,1675552698
342,voyvozh,62.892,54.9635,-22.38,100,100,1.0,RU,1675552699
343,ewa beach,21.3156,-158.0072,24.99,75,100,3.09,US,1675552700
344,saskylakh,71.9167,114.0833,-34.93,98,90,1.43,RU,1675552599
345,mira,45.4358,12.1348,6.69,83,0,1.54,IT,1675552701
346,labuhan,-6.8844,112.2051,25.14,87,100,2.78,ID,1675552588
347,zunyi,27.6867,106.9072,5.62,90,100,1.32,CN,1675552702
348,borova,50.1763,30.1043,-4.25,90,100,4.38,UA,1675552703
349,torbay,47.6666,-52.7314,-12.63,86,100,10.29,CA,1675552477
350,soyo,-6.1349,12.3689,26.77,85,94,3.83,AO,1675552704
351,la palma,33.8464,-118.0467,24.97,44,0,3.09,US,1675552705
352,changping,40.2186,116.2197,-9.2,32,11,1.84,CN,1675552705
353,bayangol,50.6977,103.4656,-24.13,97,72,1.47,RU,1675552706
354,namatanai,-3.6667,152.4333,27.21,78,100,1.42,PG,1675552534
355,chara,56.9064,118.2631,-24.27,78,98,1.29,RU,1675552707
356,richards bay,-28.783,32.0377,21.83,90,14,1.47,ZA,1675552587
357,roebourne,-20.7833,117.1333,31.53,51,95,1.8,AU,1675552708
358,okhotsk,59.3833,143.3,-26.97,82,40,5.0,RU,1675552602
359,takoradi,4.8845,-1.7554,26.14,87,91,3.65,GH,1675552489
360,chicama,-7.8447,-79.1469,21.3,63,54,3.32,PE,1675552709
361,nizamabad,18.6667,78.1167,18.4,22,2,0.62,IN,1675552709
362,denpasar,-8.65,115.2167,23.81,100,75,12.35,ID,1675552709
363,clyde river,70.4692,-68.5914,-24.84,87,100,2.87,CA,1675552443
364,urucara,-2.5364,-57.76,24.24,95,100,0.2,BR,1675552710
365,talnakh,69.4865,88.3972,-11.55,95,100,3.13,RU,1675552346
366,geraldton,-28.7667,114.6,23.23,88,75,2.57,AU,1675552432
367,zapolyarnyy,69.4154,30.8136,-14.4,100,67,1.36,RU,1675552710
368,sawakin,19.1059,37.3321,21.72,70,38,4.26,SD,1675552710
369,vaitape,-16.5167,-151.75,27.55,73,55,7.8,PF,1675552711
370,logan lake,50.4998,-120.8025,0.68,97,99,2.87,CA,1675552711
371,adre,13.4667,22.2,21.1,13,99,5.8,TD,1675552602
372,olden,61.8364,6.8064,2.41,97,100,3.7,NO,1675552711
373,sabya,17.1495,42.6254,24.79,72,55,1.81,SA,1675552712
374,sartana,47.1744,37.6927,-0.02,80,97,2.32,UA,1675552712
375,sotik,-0.6833,35.1187,12.32,72,62,1.26,KE,1675552712
376,san juan,-31.5375,-68.5364,30.18,24,0,4.59,AR,1675552299
377,forio,40.7342,13.8646,10.24,57,4,8.05,IT,1675552712
378,nokaneng,-19.6667,22.2667,21.67,83,83,1.57,BW,1675552713
379,pangnirtung,66.1451,-65.7125,-35.47,98,80,0.58,CA,1675552304
380,japura,-0.3167,102.35,22.61,98,100,0.65,ID,1675552713
381,port augusta,-32.5,137.7667,21.15,44,1,2.31,AU,1675552713
382,eureka,40.8021,-124.1637,17.57,53,100,2.68,US,1675552550
383,sisimiut,66.9395,-53.6735,-22.51,93,45,3.84,GL,1675552494
384,port said,31.2565,32.2841,14.11,66,1,6.64,EG,1675552714
385,ostrovnoy,68.0531,39.5131,-10.1,84,100,5.56,RU,1675552551
386,rincon,32.296,-81.2354,9.98,74,5,2.12,US,1675552714
387,juba,4.8517,31.5825,25.22,31,50,0.68,SS,1675552714
388,mikhaylovskoye,51.8239,79.7172,-17.63,99,91,0.85,RU,1675552715
389,tongling,30.95,117.7833,6.48,80,100,1.41,CN,1675552715
390,saint-pierre,-21.3393,55.4781,25.82,78,20,2.06,RE,1675552463
391,bambous virieux,-20.3428,57.7575,25.12,84,57,4.09,MU,1675552501
392,punta gorda,26.9298,-82.0454,22.22,69,20,9.83,US,1675552518
393,sorland,67.667,12.6934,3.92,95,100,17.59,NO,1675552715
394,irun,43.339,-1.7894,9.81,80,100,2.06,ES,1675552716
395,sartell,45.6216,-94.2069,-3.84,73,0,3.09,US,1675552716
396,sulangan,11.1373,123.7228,25.95,83,92,6.15,PH,1675552554
397,comodoro rivadavia,-45.8667,-67.5,28.49,36,21,2.78,AR,1675552536
398,taldan,53.6667,124.8,-30.51,100,59,1.33,RU,1675552716
399,zhezkazgan,47.8043,67.7144,-9.68,96,100,2.1,KZ,1675552717
400,aljezur,37.3191,-8.8033,10.35,66,0,2.66,PT,1675552717
401,aberdeen,57.1437,-2.0981,4.27,76,26,4.12,GB,1675552481
402,opuwo,-18.0607,13.84,21.87,35,82,1.99,NA,1675552549
403,bairiki,1.3292,172.9752,30.0,70,75,4.63,KI,1675552717
404,burgos,42.3394,-3.7079,1.23,93,100,7.2,ES,1675552717
405,verkhnyaya tishanka,51.3239,40.5328,-5.09,95,96,4.11,RU,1675552718
406,srednekolymsk,67.45,153.6833,-36.22,100,100,1.57,RU,1675552368
407,sanlucar de barrameda,36.7781,-6.3515,9.01,76,0,0.51,ES,1675552718
408,deniliquin,-35.5333,144.9667,18.14,50,0,2.88,AU,1675552718
409,fortuna,40.5982,-124.1573,17.42,59,75,6.17,US,1675552544
410,bacolod,10.6667,122.95,24.9,86,94,3.78,PH,1675552719
411,najran,17.4924,44.1277,15.36,52,40,1.15,SA,1675552719
412,nioro,13.35,-15.75,27.69,11,88,4.99,GM,1675552485
413,manokwari,-0.8667,134.0833,25.26,86,100,2.29,ID,1675552719
414,ruidoso,33.3317,-105.673,12.54,14,1,6.17,US,1675552576
415,gat,31.61,34.7642,12.44,100,73,3.41,IL,1675552719
416,tarauaca,-8.1614,-70.7656,23.93,82,90,0.67,BR,1675552657
417,deer lake,49.1667,-57.4316,-11.08,79,100,8.23,CA,1675552720
418,kailua,21.4022,-157.7394,25.01,90,100,1.34,US,1675552720
419,inhambane,-23.865,35.3833,24.33,86,9,3.73,MZ,1675552720
420,kloulklubed,7.0419,134.2556,27.28,78,98,8.38,PW,1675552721
421,taoudenni,22.6783,-3.9836,15.47,37,100,5.8,ML,1675552563
422,port moresby,-9.4431,147.1797,26.68,78,40,5.14,PG,1675552605
423,tolmachevo,54.9824,82.7363,-23.92,77,40,2.0,RU,1675552721
424,maceio,-9.6658,-35.7353,25.69,94,20,2.57,BR,1675552689
425,rio gallegos,-51.6226,-69.2181,18.03,63,75,2.57,AR,1675552721
426,skaudvile,55.4167,22.6167,-4.23,89,91,3.69,LT,1675552722
427,doha,25.2867,51.5333,16.99,63,0,1.54,QA,1675552569
428,nouadhibou,20.931,-17.0347,17.91,53,86,6.16,MR,1675552520
429,zitlala,17.6333,-99.0833,21.82,29,1,1.7,MX,1675552723
430,wanning,18.8003,110.3967,22.26,92,100,3.17,CN,1675552723
431,palauig,15.435,119.9045,24.35,68,95,2.31,PH,1675552724
432,shemordan,56.1856,50.3972,-14.74,99,100,1.57,RU,1675552724
433,margate,51.3813,1.3862,7.95,76,100,0.89,GB,1675552724
434,salalah,17.0151,54.0924,22.05,78,20,1.54,OM,1675552364
435,cilegon,-6.0174,106.0538,25.99,82,100,4.75,ID,1675552725
436,zonguldak,41.25,31.8333,-1.16,77,99,1.94,TR,1675552725
437,ulaanbaatar,47.9077,106.8832,-27.93,76,54,0.0,MN,1675552725
438,bonthe,7.5264,-12.505,25.04,89,26,3.16,SL,1675552726
439,puerto colombia,10.9878,-74.9547,26.05,85,4,10.42,CO,1675552726
440,faya,18.3851,42.4509,11.29,61,82,0.35,SA,1675552533
441,fomboni,-12.28,43.7425,27.54,74,95,1.33,KM,1675552726
442,ponta do sol,32.6667,-17.1,17.35,48,22,4.23,PT,1675552440
443,barreirinha,-2.7933,-57.07,24.64,88,96,0.45,BR,1675552727
444,stornoway,58.2093,-6.3865,2.24,85,75,2.57,GB,1675552598
445,waingapu,-9.6567,120.2641,24.56,89,100,3.68,ID,1675552437
446,mandurah,-32.55,115.7,25.59,43,4,4.41,AU,1675552727
447,kabanjahe,3.1001,98.4908,16.68,95,99,0.59,ID,1675552727
448,el penon,8.9892,-73.9486,30.09,43,43,1.18,CO,1675552727
449,chenghai,23.4632,116.768,13.95,100,100,0.0,CN,1675552728
450,muros,42.7762,-9.0603,8.38,85,1,4.34,ES,1675552437
451,karla,59.3723,24.9275,-6.02,93,0,1.03,EE,1675552728
452,isangel,-19.55,169.2667,28.62,82,66,7.0,VU,1675552500
453,kaiyuan,23.6977,103.3037,11.68,94,16,2.58,CN,1675552728
454,hofn,64.2539,-15.2082,0.39,63,62,3.42,IS,1675552487
455,vanimo,-2.6741,141.3028,26.83,82,97,1.42,PG,1675552436
456,broome,42.2506,-75.833,-6.83,59,100,6.71,US,1675552729
457,anadyr,64.75,177.4833,-29.72,76,0,4.0,RU,1675552729
458,san quintin,30.4833,-115.95,17.62,56,0,4.79,MX,1675552578
459,totma,59.9747,42.7642,-8.82,98,100,1.15,RU,1675552729
460,saint george,37.1041,-113.5841,16.35,30,0,1.54,US,1675552541
461,atyashevo,54.5644,46.0691,-15.88,100,91,1.28,RU,1675552730
462,bolshaya dzhalga,45.9695,42.6966,1.17,77,100,1.69,RU,1675552730
463,peniche,39.3558,-9.3811,10.81,91,0,5.74,PT,1675552730
464,przasnysz,53.0191,20.8803,-5.35,82,10,4.05,PL,1675552731
465,el dorado,38.7666,-120.5177,14.36,56,100,0.89,US,1675552731
466,zhigansk,66.7697,123.3711,-41.98,96,46,4.79,RU,1675552482
467,phuket,8.0,98.25,29.49,83,20,3.09,TH,1675552731
468,troitsko-pechorsk,62.7084,56.1964,-20.88,100,97,1.12,RU,1675552732
469,saint-felicien,48.6501,-72.4491,-20.62,59,100,4.12,CA,1675552732
470,verkhoyansk,67.5447,133.385,-39.53,99,100,0.46,RU,1675552732
471,cap malheureux,-19.9842,57.6142,25.26,83,97,3.13,MU,1675552601
472,ligayan,4.6533,119.4706,26.92,78,95,2.34,PH,1675552733
473,danielskuil,-28.1887,23.5395,22.81,43,95,2.98,ZA,1675552733
474,elizabeth city,36.2946,-76.2511,0.01,65,0,1.54,US,1675552734
475,otradnoye,59.7775,30.8181,-3.91,91,98,2.9,RU,1675552734
476,maryville,35.7565,-83.9705,8.11,57,100,0.89,US,1675552527
477,belaya gora,68.5333,146.4167,-36.22,100,99,1.77,RU,1675552439
478,vagur,61.4732,-6.8119,5.78,70,40,14.14,FO,1675552734
479,matara,5.9485,80.5353,23.17,93,65,2.4,LK,1675552735
480,asosa,10.0667,34.5333,19.32,29,38,2.47,ET,1675552735
481,zlatibor,43.7168,19.7,-7.46,95,100,5.68,RS,1675552735
482,hornepayne,49.2138,-84.7705,-8.71,91,100,3.4,CA,1675552735
483,deputatskiy,69.3,139.9,-34.2,99,95,1.28,RU,1675552489
484,misratah,32.3754,15.0925,14.25,69,33,2.2,LY,1675552736
485,virden,39.5009,-89.7679,7.84,63,100,7.45,US,1675552736
486,kartaly,53.0522,60.6467,-21.83,100,22,3.03,RU,1675552736
487,balkanabat,39.5108,54.3671,5.85,45,98,2.5,TM,1675552736
488,mount darwin,-16.7725,31.5838,20.79,88,100,0.54,ZW,1675552737
489,nouakchott,18.0858,-15.9785,19.96,28,100,4.98,MR,1675552663
490,ponta delgada,37.7333,-25.6667,14.4,82,20,3.09,PT,1675552737
491,cockburn town,21.4612,-71.1419,25.21,77,0,8.1,TC,1675552541
492,thunder bay,48.4001,-89.3168,-7.02,92,100,0.31,CA,1675552201
493,mucuri,-18.0864,-39.5508,26.38,82,8,5.79,BR,1675552737
494,conde,-7.2597,-34.9075,26.7,83,20,4.63,BR,1675552738
495,fuente de oro,3.4594,-73.6128,29.98,35,18,1.87,CO,1675552568
496,lokosovo,61.1333,74.8167,-17.72,100,99,2.37,RU,1675552738
497,melfi,40.9965,15.6514,2.5,59,85,6.93,IT,1675552738
498,hede,33.7681,120.2517,0.26,84,65,2.47,CN,1675552739
499,beboto,8.2668,16.939,24.57,17,37,1.53,TD,1675552559
500,kununurra,-15.7667,128.7333,26.99,78,100,3.09,AU,1675552533
501,sampit,-2.5333,112.95,22.62,98,100,0.9,ID,1675552739
502,kirakira,-10.4544,161.9205,30.0,71,48,1.65,SB,1675552739
503,tauramena,5.0183,-72.7492,28.78,37,25,2.97,CO,1675552740
504,olafsvik,64.8945,-23.7142,2.5,97,100,10.7,IS,1675552740
505,monchegorsk,67.9397,32.8739,-14.44,97,97,1.32,RU,1675552740
506,moshi,-3.35,37.3333,21.35,56,54,1.28,TZ,1675552741
507,kashi,39.4547,75.9797,-1.44,69,98,4.0,CN,1675552741
508,krasnogorsk,55.8225,37.3181,-0.97,86,40,3.0,RU,1675552741
509,hambantota,6.1241,81.1185,24.1,86,51,4.92,LK,1675552741
510,phuthaditjhaba,-28.5242,28.8158,13.74,92,69,1.38,ZA,1675552742
511,lardos,36.0942,28.0157,7.9,83,98,3.45,GR,1675552743
512,halifax,44.6453,-63.5724,-14.19,64,66,8.94,CA,1675552147
513,namtsy,62.7161,129.6658,-33.38,99,100,0.71,RU,1675552744
514,trim,53.555,-6.7917,4.7,86,58,2.2,IE,1675552745
515,la macarena,2.1837,-73.7849,30.27,39,61,1.57,CO,1675552570
516,bosaso,11.2842,49.1816,21.46,78,54,0.63,SO,1675552747
517,toropets,56.4978,31.6353,-7.48,96,97,2.54,RU,1675552747
518,skhisma,35.2667,25.7167,11.94,74,44,8.0,GR,1675552748
519,payo,-3.7508,103.6372,21.13,96,100,1.01,ID,1675552604
520,rawson,-43.3002,-65.1023,30.55,25,17,10.97,AR,1675552540
521,muravlenko,63.7898,74.523,-12.19,95,100,5.65,RU,1675552749
522,fort-shevchenko,44.5086,50.263,-1.9,90,63,3.97,KZ,1675552749
523,broken hill,-31.95,141.4333,19.08,46,0,4.75,AU,1675552452
524,soledar,48.6794,38.089,-1.41,90,99,1.7,UA,1675552750
525,karratha,-20.7377,116.8463,31.73,45,58,1.5,AU,1675552500
526,nuevo progreso,23.1667,-97.95,22.16,46,2,0.89,MX,1675552603
527,tashtagol,52.7657,87.8894,-17.46,100,100,1.05,RU,1675552750
528,uray,60.1247,64.7758,-19.06,99,95,1.62,RU,1675552751
529,omsukchan,62.5333,155.8,-30.4,97,99,1.85,RU,1675552752
530,adolfo lopez mateos,28.4667,-107.3,19.96,14,0,7.44,MX,1675552752
531,kungurtug,50.5994,97.5228,-17.48,98,99,0.55,RU,1675552753
532,kang,-23.6752,22.7876,22.85,68,64,4.11,BW,1675552753
533,constitucion,-35.3333,-72.4167,17.81,84,26,1.76,CL,1675552388
534,albanel,48.8832,-72.4487,-20.92,64,99,2.06,CA,1675552754
535,umred,20.85,79.3333,14.16,25,28,2.47,IN,1675552754
536,ndende,-2.4008,11.3581,22.95,97,99,1.34,GA,1675552755
537,alice springs,-23.7,133.8833,20.75,43,1,3.09,AU,1675552755
538,dolgorukovo,52.3195,38.3453,-5.46,93,100,3.39,RU,1675552756
539,port hawkesbury,45.6169,-61.3485,-13.54,86,100,16.98,CA,1675552757
540,daru,-9.0763,143.2092,24.16,93,100,4.01,PG,1675552757
541,iqaluit,63.7506,-68.5145,-36.84,65,40,6.71,CA,1675552546
542,progreso,21.2833,-89.6667,22.28,75,76,7.52,MX,1675552560
543,talcahuano,-36.7167,-73.1167,17.82,82,100,3.09,CL,1675552758
544,dicabisagan,17.0818,122.4157,23.01,87,85,0.87,PH,1675552759
545,sioux lookout,50.1001,-91.917,-13.96,72,100,0.0,CA,1675552760
546,dongsheng,39.8161,109.9776,-5.91,47,65,3.41,CN,1675552761
547,tongliao,43.6125,122.2653,-8.07,54,65,2.7,CN,1675552764
548,kiama,-34.6833,150.8667,24.65,47,0,0.55,AU,1675552766
549,ulladulla,-35.35,150.4667,20.54,48,0,1.32,AU,1675552518
550,maningrida,-12.0667,134.2667,25.02,88,91,1.89,AU,1675552767
551,kurilsk,45.2333,147.8833,-6.32,82,99,5.75,RU,1675552767
552,buraydah,26.326,43.975,12.25,35,0,5.05,SA,1675552768
553,pastavy,55.1168,26.8326,-6.77,94,99,4.6,BY,1675552768
554,stromness,58.965,-3.296,6.04,77,5,12.07,GB,1675552659
555,hualmay,-11.0964,-77.6139,23.05,78,96,3.36,PE,1675552604
556,launceston,-41.45,147.1667,19.08,57,0,2.57,AU,1675552769
557,kovdor,67.5662,30.4758,-14.57,96,100,1.93,RU,1675552769
558,kodinsk,58.6881,99.1844,-13.67,98,99,1.16,RU,1675552770
559,izhma,65.0083,53.9113,-17.1,99,99,1.44,RU,1675552770
560,huadian,42.9633,126.7478,-16.45,94,95,0.64,CN,1675552770
